City_ID,City,Lat,Lng,Max Temp,Humidity,Cloudiness,Wind Speed,Country,Date
0,saint george,37.1041,-113.5841,34.95,99,0,5.75,US,2023-02-06 10:49:39
1,jiazi,22.8779,116.067,64.58,90,85,7.11,CN,2023-02-06 10:51:37
2,lotofaga,-13.9764,-171.8578,78.58,74,90,9.53,WS,2023-02-06 10:51:37
3,agadir,30.4202,-9.5982,61.25,35,4,1.97,MA,2023-02-06 10:51:37
4,baruun-urt,46.6806,113.2792,0.3,88,95,2.59,MN,2023-02-06 10:51:38
5,qaanaaq,77.484,-69.3632,-15.5,92,100,4.0,GL,2023-02-06 10:51:38
6,morris,40.8334,-74.5329,37.11,76,10,3.29,US,2023-02-06 10:48:05
7,punta arenas,-53.15,-70.9167,53.71,66,100,21.85,CL,2023-02-06 10:49:09
8,bogatic,44.8375,19.4806,31.91,51,34,8.25,RS,2023-02-06 10:51:39
9,mataura,-46.1927,168.8643,53.89,80,79,2.82,NZ,2023-02-06 10:51:40
10,pihuamo,19.2499,-103.3828,64.02,54,42,4.72,MX,2023-02-06 10:51:40
11,hilo,19.7297,-155.09,72.63,93,100,8.05,US,2023-02-06 10:51:40
12,ribeira grande,38.5167,-28.7,61.2,72,75,27.0,PT,2023-02-06 10:51:41
13,bluff,-46.6,168.3333,58.42,77,75,12.77,NZ,2023-02-06 10:51:41
14,castro,-24.7911,-50.0119,65.79,68,54,0.63,BR,2023-02-06 10:51:42
15,kapaa,22.0752,-159.319,73.72,89,75,12.66,US,2023-02-06 10:51:42
16,lewistown,40.5992,-77.5714,45.34,75,75,0.0,US,2023-02-06 10:51:42
17,northam,51.0333,-4.2167,47.39,85,41,5.3,GB,2023-02-06 10:51:43
18,honningsvag,70.9821,25.9704,35.35,75,75,20.71,NO,2023-02-06 10:51:43
19,bambous virieux,-20.3428,57.7575,85.21,74,75,8.05,MU,2023-02-06 10:51:43
20,broome,42.2506,-75.833,37.2,80,100,11.5,US,2023-02-06 10:51:44
21,vaini,-21.2,-175.2,73.56,94,20,2.3,TO,2023-02-06 10:51:44
22,tuktoyaktuk,69.4541,-133.0374,-36.87,100,90,3.38,CA,2023-02-06 10:51:44
23,ushuaia,-54.8,-68.3,46.06,76,40,4.61,AR,2023-02-06 10:51:45
24,grindavik,63.8424,-22.4338,35.55,86,75,21.85,IS,2023-02-06 10:51:45
25,kota kinabalu,5.9749,116.0724,82.38,83,20,3.44,MY,2023-02-06 10:51:46
26,turukhansk,65.8167,87.9833,-7.96,100,100,2.62,RU,2023-02-06 10:51:46
27,korostyshiv,50.3172,29.0563,25.36,74,100,10.76,UA,2023-02-06 10:51:46
28,butaritari,3.0707,172.7902,80.62,81,62,17.4,KI,2023-02-06 10:51:47
29,arraial do cabo,-22.9661,-42.0278,76.86,88,0,4.61,BR,2023-02-06 10:51:47
30,tasiilaq,65.6145,-37.6368,21.36,95,98,2.01,GL,2023-02-06 10:51:47
31,saint-denis,48.9167,2.3333,43.09,83,75,13.8,FR,2023-02-06 10:51:48
32,benguela,-12.5763,13.4055,83.89,59,85,10.54,AO,2023-02-06 10:51:48
33,lompoc,34.6391,-120.4579,45.79,77,0,20.0,US,2023-02-06 10:51:48
34,waitati,-45.75,170.5667,61.81,83,100,7.29,NZ,2023-02-06 10:51:49
35,kaitangata,-46.2817,169.8464,54.72,85,87,5.91,NZ,2023-02-06 10:51:49
36,saint-philippe,-21.3585,55.7679,85.59,78,89,12.1,RE,2023-02-06 10:51:50
37,elat,29.5581,34.9482,66.04,34,40,14.97,IL,2023-02-06 10:51:50
38,avarua,-21.2078,-159.775,80.65,89,75,12.66,CK,2023-02-06 10:51:50
39,new norfolk,-42.7826,147.0587,62.1,55,9,7.0,AU,2023-02-06 10:51:51
40,lebu,-37.6167,-73.65,57.11,92,14,16.98,CL,2023-02-06 10:51:51
41,port alfred,-33.5906,26.891,79.18,84,46,1.99,ZA,2023-02-06 10:51:51
42,zheleznodorozhnyy,55.7503,38.0042,24.37,88,90,2.57,RU,2023-02-06 10:50:05
43,constitucion,-35.3333,-72.4167,60.67,76,0,2.98,CL,2023-02-06 10:51:52
44,chernyshevskiy,63.0128,112.4714,-40.94,100,85,0.6,RU,2023-02-06 10:51:53
45,ornes,66.8689,13.7078,38.1,93,100,19.8,NO,2023-02-06 10:51:53
46,albany,42.6001,-73.9662,35.58,75,90,4.07,US,2023-02-06 10:49:31
47,hambantota,6.1241,81.1185,88.14,70,40,14.97,LK,2023-02-06 10:51:54
48,hobart,-42.8794,147.3294,62.46,56,20,16.11,AU,2023-02-06 10:50:07
49,makakilo city,21.3469,-158.0858,75.56,72,0,17.27,US,2023-02-06 10:51:54
50,faya,18.3851,42.4509,69.91,35,54,10.98,SA,2023-02-06 10:51:54
51,bredasdorp,-34.5322,20.0403,77.74,66,99,16.89,ZA,2023-02-06 10:51:55
52,soliera,44.738,10.9263,45.0,58,80,9.57,IT,2023-02-06 10:51:55
53,cherskiy,68.75,161.3,-38.83,100,100,6.13,RU,2023-02-06 10:51:56
54,caluquembe,-13.7833,14.6833,74.59,45,77,8.41,AO,2023-02-06 10:51:56
55,kahului,20.8947,-156.47,75.85,83,0,13.0,US,2023-02-06 10:51:56
56,provideniya,64.3833,-173.3,0.43,95,98,3.27,RU,2023-02-06 10:51:57
57,nikolskoye,59.7035,30.7861,30.09,93,100,4.94,RU,2023-02-06 10:51:57
58,zerind,46.6167,21.5167,35.94,60,7,12.21,RO,2023-02-06 10:51:57
59,puerto ayora,-0.7393,-90.3518,77.56,93,82,1.01,EC,2023-02-06 10:51:58
60,hermanus,-34.4187,19.2345,81.81,65,87,10.65,ZA,2023-02-06 10:51:58
61,korla,41.7597,86.1469,33.48,57,100,3.69,CN,2023-02-06 10:51:59
62,chokurdakh,70.6333,147.9167,-20.83,99,100,4.65,RU,2023-02-06 10:51:59
63,nuuk,64.1835,-51.7216,9.21,72,100,15.01,GL,2023-02-06 10:51:59
64,gobabis,-22.45,18.9667,79.0,47,100,11.3,NA,2023-02-06 10:51:38
65,bulungu,-4.55,18.6,90.27,45,98,3.58,CD,2023-02-06 10:52:00
66,saint-joseph,-21.3667,55.6167,84.58,78,92,9.75,RE,2023-02-06 10:52:00
67,cape town,-33.9258,18.4232,92.12,57,20,12.66,ZA,2023-02-06 10:47:46
68,wenling,28.3669,121.36,55.35,93,99,7.78,CN,2023-02-06 10:52:01
69,fortuna,40.5982,-124.1573,41.92,96,20,4.61,US,2023-02-06 10:52:01
70,beringovskiy,63.05,179.3167,-21.24,97,94,9.28,RU,2023-02-06 10:52:02
71,san patricio,28.017,-97.5169,64.27,95,0,7.81,US,2023-02-06 10:52:02
72,kasamwa,-2.85,32.4333,82.27,41,73,4.34,TZ,2023-02-06 10:52:02
73,santiago de compostela,42.8805,-8.5457,53.19,61,0,5.75,ES,2023-02-06 10:52:03
74,thompson,55.7435,-97.8558,12.36,92,100,3.44,CA,2023-02-06 10:52:03
75,airai,-8.9266,125.4092,61.92,94,92,2.19,TL,2023-02-06 10:52:04
76,sangueya,10.7,-14.3667,88.61,32,83,1.41,GN,2023-02-06 10:52:04
77,berdigestyakh,62.0989,126.6992,-42.09,100,98,2.62,RU,2023-02-06 10:52:05
78,homer,59.6425,-151.5483,31.89,80,100,13.8,US,2023-02-06 10:52:05
79,busselton,-33.65,115.3333,71.98,70,0,14.88,AU,2023-02-06 10:52:06
80,valdez,1.2492,-78.9831,75.34,90,98,4.59,EC,2023-02-06 10:52:06
81,sao filipe,14.8961,-24.4956,69.13,59,48,14.38,CV,2023-02-06 10:52:06
82,mezen,65.8522,44.24,3.56,97,98,6.33,RU,2023-02-06 10:52:07
83,barrow,71.2906,-156.7887,-14.78,84,100,4.61,US,2023-02-06 10:52:07
84,atuona,-9.8,-139.0333,78.44,75,35,18.01,PF,2023-02-06 10:52:08
85,pontianak,-0.0333,109.3333,84.18,74,20,6.91,ID,2023-02-06 10:52:08
86,rikitea,-23.1203,-134.9692,77.27,79,5,6.64,PF,2023-02-06 10:47:33
87,vao,-22.6667,167.4833,79.02,77,27,15.77,NC,2023-02-06 10:52:09
88,vostok,46.4856,135.8833,-6.93,99,72,4.74,RU,2023-02-06 10:52:09
89,fort smith,35.3859,-94.3986,45.25,86,0,4.61,US,2023-02-06 10:47:36
90,bandarbeyla,9.4942,50.8122,78.31,63,37,15.84,SO,2023-02-06 10:52:10
91,port elizabeth,-33.918,25.5701,82.69,65,20,6.91,ZA,2023-02-06 10:52:10
92,iguape,-24.7081,-47.5553,76.86,77,14,5.75,BR,2023-02-06 10:52:10
93,hit,33.6416,42.8251,67.01,39,44,17.94,IQ,2023-02-06 10:52:11
94,yar-sale,66.8333,70.8333,-20.45,100,100,3.98,RU,2023-02-06 10:52:11
95,walla walla,46.0646,-118.343,41.9,79,100,14.0,US,2023-02-06 10:52:11
96,aklavik,68.2191,-135.0107,-42.52,100,56,2.82,CA,2023-02-06 10:52:12
97,gat,31.61,34.7642,56.79,29,65,30.58,IL,2023-02-06 10:52:12
98,rusne,55.2964,21.3758,35.78,72,79,8.52,LT,2023-02-06 10:52:13
99,clyde river,70.4692,-68.5914,-27.17,75,20,5.75,CA,2023-02-06 10:52:13
100,yellowknife,62.456,-114.3525,-8.45,77,40,8.05,CA,2023-02-06 10:48:02
101,kulhudhuffushi,6.6221,73.07,81.36,71,58,4.72,MV,2023-02-06 10:52:14
102,hithadhoo,-0.6,73.0833,81.81,69,57,12.3,MV,2023-02-06 10:52:14
103,cidreira,-30.1811,-50.2056,72.59,80,20,6.62,BR,2023-02-06 10:52:15
104,bashtanka,47.4072,32.4387,32.11,51,89,19.22,UA,2023-02-06 10:52:15
105,dubbo,-32.25,148.6167,77.13,29,0,6.91,AU,2023-02-06 10:52:15
106,tiksi,71.6872,128.8694,-25.13,100,100,4.0,RU,2023-02-06 10:52:16
107,evensk,61.95,159.2333,-19.19,76,8,10.31,RU,2023-02-06 10:52:16
108,san quintin,30.4833,-115.95,54.36,80,50,21.45,MX,2023-02-06 10:52:17
109,ascension,30.2169,-90.9001,47.01,93,0,0.0,US,2023-02-06 10:52:17
110,marsh harbour,26.5412,-77.0636,72.99,77,40,9.71,BS,2023-02-06 10:52:17
111,phatthalung,7.5,100.0833,78.93,79,54,6.89,TH,2023-02-06 10:52:18
112,jamestown,42.097,-79.2353,34.02,100,100,8.05,US,2023-02-06 10:50:45
113,saskylakh,71.9167,114.0833,-25.73,98,100,4.99,RU,2023-02-06 10:52:18
114,teknaf,20.8624,92.3058,76.51,44,1,16.42,BD,2023-02-06 10:52:19
115,touros,-5.1989,-35.4608,82.38,69,16,9.26,BR,2023-02-06 10:52:19
116,georgetown,5.4112,100.3354,78.73,94,40,6.91,MY,2023-02-06 10:52:20
117,walvis bay,-22.9575,14.5053,65.17,81,100,5.61,NA,2023-02-06 10:52:20
118,los llanos de aridane,28.6585,-17.9182,62.35,70,20,10.36,ES,2023-02-06 10:52:20
119,royan,45.6285,-1.0281,42.84,73,6,18.48,FR,2023-02-06 10:52:21
120,kargasok,59.0556,80.8572,5.85,99,100,3.36,RU,2023-02-06 10:52:21
121,hirara,24.8,125.2833,66.47,94,75,2.3,JP,2023-02-06 10:52:22
122,port-gentil,-0.7193,8.7815,85.96,70,40,9.22,GA,2023-02-06 10:52:22
123,sao joao da barra,-21.6403,-41.0511,77.09,85,1,6.73,BR,2023-02-06 10:52:22
124,riyadh,24.6877,46.7219,80.74,29,48,20.78,SA,2023-02-06 10:52:23
125,tateyama,34.9833,139.8667,50.63,48,100,4.36,JP,2023-02-06 10:52:23
126,matagami,49.7502,-77.6328,-9.29,84,100,3.44,CA,2023-02-06 10:52:24
127,mapiri,-15.25,-68.1667,63.93,99,98,0.56,BO,2023-02-06 10:52:24
128,victoria,22.2855,114.1577,70.95,86,64,8.99,HK,2023-02-06 10:47:46
129,mount isa,-20.7333,139.5,80.37,83,75,12.66,AU,2023-02-06 10:52:25
130,bahia honda,22.9036,-83.1592,71.94,86,4,3.67,CU,2023-02-06 10:52:25
131,upernavik,72.7868,-56.1549,-13.32,94,100,13.73,GL,2023-02-06 10:52:26
132,ambilobe,-13.2,49.05,80.51,84,99,5.08,MG,2023-02-06 10:52:26
133,isangel,-19.55,169.2667,80.8,82,98,5.08,VU,2023-02-06 10:52:26
134,ntungamo,-0.8833,29.65,85.91,27,65,6.69,UG,2023-02-06 10:52:27
135,camabatela,-8.1881,15.375,69.69,84,100,3.49,AO,2023-02-06 10:52:27
136,sabratah,32.7933,12.4885,57.67,52,44,9.89,LY,2023-02-06 10:52:28
137,bethel,41.3712,-73.414,34.16,80,0,0.0,US,2023-02-06 10:52:28
138,te anau,-45.4167,167.7167,56.62,77,98,6.91,NZ,2023-02-06 10:50:12
139,samarai,-10.6167,150.6667,79.38,84,100,12.84,PG,2023-02-06 10:52:29
140,vung tau,10.346,107.0843,77.92,81,11,17.69,VN,2023-02-06 10:52:29
141,whitehorse,60.7161,-135.0538,23.77,80,75,18.41,CA,2023-02-06 10:52:29
142,fort nelson,58.8053,-122.7002,-8.01,77,100,2.3,CA,2023-02-06 10:52:30
143,blagoyevo,63.3667,47.9167,9.86,96,100,3.76,RU,2023-02-06 10:52:30
144,nakusp,50.2499,-117.8023,34.14,100,92,2.3,CA,2023-02-06 10:52:31
145,axim,4.8699,-2.2405,84.92,71,64,9.06,GH,2023-02-06 10:52:31
146,mar del plata,-38.0023,-57.5575,75.83,84,0,8.05,AR,2023-02-06 10:48:42
147,khatanga,71.9667,102.5,-37.07,100,40,5.39,RU,2023-02-06 10:52:32
148,dikson,73.5069,80.5464,-1.19,97,100,1.34,RU,2023-02-06 10:52:32
149,sisimiut,66.9395,-53.6735,3.13,94,100,0.54,GL,2023-02-06 10:50:00
150,altamont,42.2068,-121.7372,31.98,86,0,6.91,US,2023-02-06 10:52:33
151,ligayan,4.6533,119.4706,82.09,75,33,8.66,PH,2023-02-06 10:52:33
152,limoges,45.75,1.3333,43.68,70,20,17.27,FR,2023-02-06 10:52:34
153,iqaluit,63.7506,-68.5145,-22.27,74,100,9.22,CA,2023-02-06 10:52:13
154,coquimbo,-29.9533,-71.3436,62.33,100,40,2.3,CL,2023-02-06 10:52:34
155,okhotsk,59.3833,143.3,-11.4,87,98,7.76,RU,2023-02-06 10:52:35
156,puerto escondido,15.85,-97.0667,74.35,63,0,4.76,MX,2023-02-06 10:52:35
157,waingapu,-9.6567,120.2641,78.24,86,100,12.71,ID,2023-02-06 10:52:35
158,saint-francois,46.4154,3.9054,42.24,74,100,16.11,FR,2023-02-06 10:52:36
159,kupang,-10.1667,123.5833,81.18,89,40,5.75,ID,2023-02-06 10:52:36
160,east london,-33.0153,27.9116,81.54,78,0,11.5,ZA,2023-02-06 10:52:37
161,esperance,-33.8667,121.9,79.27,48,68,25.75,AU,2023-02-06 10:52:37
162,longyearbyen,78.2186,15.6401,28.24,64,75,24.16,SJ,2023-02-06 10:52:37
163,tromso,69.6496,18.957,37.42,87,75,26.46,NO,2023-02-06 10:52:38
164,terra santa,-2.1042,-56.4869,73.56,96,86,3.56,BR,2023-02-06 10:52:38
165,lobito,-12.3481,13.5456,82.26,64,84,9.35,AO,2023-02-06 10:52:39
166,klaksvik,62.2266,-6.589,47.32,90,100,41.7,FO,2023-02-06 10:52:39
167,souillac,-20.5167,57.5167,84.58,74,75,8.05,MU,2023-02-06 10:52:39
168,padang,-0.9492,100.3543,86.05,79,99,4.72,ID,2023-02-06 10:52:40
169,athabasca,54.7169,-113.2854,25.21,91,48,5.12,CA,2023-02-06 10:52:40
170,beidao,34.5686,105.8933,48.02,42,44,1.03,CN,2023-02-06 10:52:40
171,marshall,34.3834,-86.3333,45.37,90,0,0.0,US,2023-02-06 10:52:41
172,ishigaki,24.3448,124.1572,66.33,88,75,2.3,JP,2023-02-06 10:52:43
173,arica,-18.475,-70.3042,73.63,73,0,0.0,CL,2023-02-06 10:49:12
174,shakawe,-18.3667,21.85,85.5,46,94,3.62,BW,2023-02-06 10:52:43
175,caapora,-7.5156,-34.9083,77.36,73,63,7.47,BR,2023-02-06 10:52:44
176,mahibadhoo,3.7833,72.9667,81.81,70,95,9.6,MV,2023-02-06 10:52:44
177,san cristobal,7.7669,-72.225,66.38,77,66,4.12,VE,2023-02-06 10:52:44
178,nome,64.5011,-165.4064,10.47,72,0,9.22,US,2023-02-06 10:52:45
179,pacific grove,36.6177,-121.9166,45.7,87,0,5.75,US,2023-02-06 10:52:45
180,izumo,35.3667,132.7667,44.55,81,75,5.75,JP,2023-02-06 10:52:46
181,port hardy,50.6996,-127.4199,42.98,93,100,10.36,CA,2023-02-06 10:52:46
182,vila velha,-20.3297,-40.2925,79.95,85,0,16.11,BR,2023-02-06 10:52:46
183,derzhavinsk,51.1,66.3167,15.04,94,97,9.91,KZ,2023-02-06 10:52:47
184,losone,46.1687,8.7593,43.45,78,75,1.14,CH,2023-02-06 10:52:47
185,tierra blanca,14.5833,-88.5833,60.62,94,98,3.53,HN,2023-02-06 10:52:48
186,coaticook,45.1334,-71.7991,33.08,99,100,1.45,CA,2023-02-06 10:52:48
187,bengkulu,-3.8004,102.2655,80.92,79,95,13.15,ID,2023-02-06 10:52:48
188,tezu,27.9167,96.1667,70.74,37,4,1.43,IN,2023-02-06 10:52:49
189,mackay,-21.15,149.2,81.16,85,21,11.99,AU,2023-02-06 10:52:49
190,chagoda,59.164,35.3285,20.32,90,69,4.43,RU,2023-02-06 10:52:50
191,canto do buriti,-8.11,-42.9444,80.47,50,97,3.24,BR,2023-02-06 10:52:12
192,laguna,38.421,-121.4238,42.31,93,0,3.44,US,2023-02-06 10:52:50
193,amuntai,-2.4177,115.2494,79.2,77,96,1.43,ID,2023-02-06 10:52:50
194,waipawa,-41.4122,175.5153,56.37,88,0,4.38,NZ,2023-02-06 10:52:51
195,srednekolymsk,67.45,153.6833,-25.67,98,100,6.98,RU,2023-02-06 10:52:51
196,nyamati,14.15,75.5833,90.81,20,99,5.7,IN,2023-02-06 10:52:51
197,camana,-16.6228,-72.7111,74.43,87,99,3.49,PE,2023-02-06 10:52:52
198,tetouan,35.5711,-5.3724,59.77,72,20,4.61,MA,2023-02-06 10:52:52
199,pangnirtung,66.1451,-65.7125,-35.81,95,99,4.79,CA,2023-02-06 10:52:53
200,maldonado,-34.6667,-54.9167,65.59,59,24,4.52,UY,2023-02-06 10:52:53
201,kurchum,48.5722,83.6542,19.45,97,98,2.44,KZ,2023-02-06 10:52:53
202,ilhabela,-23.7781,-45.3581,81.7,73,55,1.7,BR,2023-02-06 10:52:54
203,cantagallo,7.376,-73.9196,73.26,80,86,0.27,CO,2023-02-06 10:52:54
204,cap malheureux,-19.9842,57.6142,85.46,69,61,8.99,MU,2023-02-06 10:52:55
205,san vicente,-26.6167,-54.1333,68.56,52,81,1.3,AR,2023-02-06 10:52:55
206,meulaboh,4.1363,96.1285,77.59,86,97,7.29,ID,2023-02-06 10:52:55
207,kattivakkam,13.2167,80.3167,86.09,65,100,10.11,IN,2023-02-06 10:52:56
208,carballo,43.213,-8.691,54.91,61,4,7.47,ES,2023-02-06 10:52:56
209,shelburne,44.0787,-80.2041,23.76,96,90,9.19,CA,2023-02-06 10:52:01
210,port blair,11.6667,92.75,84.24,70,40,5.75,IN,2023-02-06 10:50:26
211,vardo,70.3705,31.1107,31.98,80,0,18.41,NO,2023-02-06 10:52:57
212,kavaratti,10.5669,72.642,81.3,69,99,8.68,IN,2023-02-06 10:52:57
213,labuhan,-6.8844,112.2051,79.86,85,83,12.3,ID,2023-02-06 10:52:58
214,luderitz,-26.6481,15.1594,73.85,63,75,15.66,NA,2023-02-06 10:52:58
215,nanortalik,60.1432,-45.2371,14.99,86,100,9.86,GL,2023-02-06 10:52:58
216,chicama,-7.8447,-79.1469,68.54,79,65,4.03,PE,2023-02-06 10:52:59
217,manitouwadge,49.1215,-85.8403,-14.66,100,62,3.69,CA,2023-02-06 10:52:59
218,caldwell,43.6629,-116.6874,40.15,79,100,6.91,US,2023-02-06 10:51:47
219,dingle,10.9995,122.6711,76.87,87,48,7.29,PH,2023-02-06 10:53:00
220,tuatapere,-46.1333,167.6833,59.18,69,86,6.35,NZ,2023-02-06 10:50:17
221,tecolutilla,18.2833,-93.3167,68.59,92,18,6.67,MX,2023-02-06 10:53:00
222,bathsheba,13.2167,-59.5167,77.61,73,40,20.71,BB,2023-02-06 10:53:01
223,guerrero negro,27.9769,-114.0611,57.2,80,44,21.94,MX,2023-02-06 10:49:10
224,adrar,20.5022,-10.0711,68.11,19,95,11.05,MR,2023-02-06 10:53:01
225,birao,10.2849,22.7882,100.09,6,9,6.38,CF,2023-02-06 10:53:01
226,khoy,38.5504,44.9535,50.52,43,40,19.57,IR,2023-02-06 10:53:02
227,pevek,69.7008,170.3133,-37.23,100,97,3.27,RU,2023-02-06 10:53:02
228,jinchang,38.4953,102.1739,29.41,35,61,4.14,CN,2023-02-06 10:53:03
229,lianzhou,24.7811,112.3825,63.86,91,92,1.92,CN,2023-02-06 10:53:03
230,deputatskiy,69.3,139.9,-35.12,99,91,5.12,RU,2023-02-06 10:53:03
231,beloha,-25.1667,45.05,86.97,49,99,11.68,MG,2023-02-06 10:53:04
232,gorontalo,0.5412,123.0595,75.83,89,86,3.74,ID,2023-02-06 10:53:04
233,gladstone,-23.85,151.25,80.53,74,75,12.66,AU,2023-02-06 10:53:05
234,fiumicino,41.7675,12.2291,49.14,31,0,16.11,IT,2023-02-06 10:53:05
235,mananjary,-21.2167,48.3333,75.38,91,99,3.06,MG,2023-02-06 10:53:05
236,rundu,-17.9333,19.7667,80.51,58,97,4.52,NA,2023-02-06 10:53:06
237,matay,28.419,30.7792,60.6,25,1,20.0,EG,2023-02-06 10:53:06
238,cusuna,15.85,-85.2333,71.58,81,51,1.74,HN,2023-02-06 10:53:07
239,severo-kurilsk,50.6789,156.125,24.66,62,99,24.45,RU,2023-02-06 10:53:07
240,ipixuna,-1.7625,-48.8043,74.8,95,40,2.8,BR,2023-02-06 10:53:07
241,harper,4.375,-7.7169,84.52,66,72,6.82,LR,2023-02-06 10:53:08
242,pocatello,42.8713,-112.4455,32.18,83,100,20.71,US,2023-02-06 10:50:20
243,penzance,50.1186,-5.5371,48.88,81,20,17.27,GB,2023-02-06 10:53:08
244,alofi,-19.0595,-169.9187,71.49,94,98,8.05,NU,2023-02-06 10:53:09
245,anderson,34.5334,-82.6499,45.05,89,0,3.44,US,2023-02-06 10:53:09
246,rambha,19.5167,85.1,79.72,45,35,12.28,IN,2023-02-06 10:53:09
247,ambo,-10.1308,-76.2047,59.95,88,97,2.17,PE,2023-02-06 10:53:10
248,chumikan,54.7183,135.315,-11.96,94,25,9.26,RU,2023-02-06 10:53:10
249,gaya,24.7833,85.0,80.51,39,0,9.22,IN,2023-02-06 10:52:36
250,fomboni,-12.28,43.7425,82.78,71,100,8.84,KM,2023-02-06 10:53:11
251,kavieng,-2.5744,150.7967,81.55,79,73,9.04,PG,2023-02-06 10:53:11
252,kodiak,57.79,-152.4072,35.11,69,100,9.22,US,2023-02-06 10:53:12
253,jining,35.405,116.5814,50.14,42,80,4.92,CN,2023-02-06 10:53:12
254,alcudia,39.8532,3.1214,54.19,83,86,31.45,ES,2023-02-06 10:53:13
255,geraldton,-28.7667,114.6,75.61,64,0,18.41,AU,2023-02-06 10:53:13
256,bac lieu,9.285,105.7244,78.51,75,7,11.79,VN,2023-02-06 10:53:13
257,darnah,32.767,22.6367,50.18,75,100,15.23,LY,2023-02-06 10:53:14
258,katsuura,35.1333,140.3,50.36,48,100,4.14,JP,2023-02-06 10:53:14
259,codrington,-38.2667,141.9667,58.26,84,20,7.0,AU,2023-02-06 10:53:14
260,komsomolskiy,40.4272,71.7189,47.12,66,100,2.3,UZ,2023-02-06 10:53:15
261,revda,56.801,59.9303,22.42,88,95,1.21,RU,2023-02-06 10:53:15
262,buala,-8.145,159.5921,77.4,89,100,5.12,SB,2023-02-06 10:53:16
263,jizan,17.3333,42.6667,86.94,45,60,11.83,SA,2023-02-06 10:53:16
264,lisala,2.15,21.5167,101.26,20,44,2.53,CD,2023-02-06 10:53:16
265,ikalamavony,-21.15,46.5833,79.84,60,100,10.51,MG,2023-02-06 10:53:17
266,kolokani,13.5728,-8.0339,85.37,9,97,11.74,ML,2023-02-06 10:53:17
267,kandrian,-6.2167,149.55,79.21,87,91,9.71,PG,2023-02-06 10:53:18
268,orchard homes,46.8633,-114.0484,36.59,84,100,10.36,US,2023-02-06 10:48:48
269,port shepstone,-30.7414,30.455,80.62,72,0,16.73,ZA,2023-02-06 10:51:10
270,talnakh,69.4865,88.3972,-0.63,98,100,3.6,RU,2023-02-06 10:53:19
271,tanda,26.55,82.65,76.06,33,0,10.11,IN,2023-02-06 10:53:19
272,santiago de cao,-7.9589,-79.2392,69.93,88,79,3.44,PE,2023-02-06 10:53:19
273,ilulissat,69.2167,-51.1,-0.38,78,75,12.66,GL,2023-02-06 10:49:12
274,leningradskiy,69.3833,178.4167,-26.21,99,100,4.99,RU,2023-02-06 10:53:20
275,hovd,48.0056,91.6419,5.85,85,14,1.25,MN,2023-02-06 10:53:20
276,xuanhua,40.6103,115.0447,31.8,24,93,3.11,CN,2023-02-06 10:53:21
277,sioux lookout,50.1001,-91.917,5.07,85,0,10.36,CA,2023-02-06 10:53:21
278,saint-ambroise,48.5501,-71.3324,10.71,79,100,6.91,CA,2023-02-06 10:53:22
279,chapais,49.7834,-74.8492,-18.62,100,44,2.55,CA,2023-02-06 10:53:22
280,kinkala,-4.3614,14.7644,81.39,65,100,3.67,CG,2023-02-06 10:53:23
281,kieta,-6.2167,155.6333,77.38,90,100,5.3,PG,2023-02-06 10:53:23
282,vestmannaeyjar,63.4427,-20.2734,38.39,75,75,32.21,IS,2023-02-06 10:53:24
283,zemio,5.0314,25.1361,104.68,8,44,2.66,CF,2023-02-06 10:53:24
284,alice springs,-23.7,133.8833,88.21,40,40,8.05,AU,2023-02-06 10:53:24
285,roros,62.5747,11.3842,24.64,86,75,1.14,NO,2023-02-06 10:53:25
286,anloga,5.7947,0.8973,83.71,75,87,10.56,GH,2023-02-06 10:53:25
287,auki,-8.7676,160.7034,76.23,91,100,5.7,SB,2023-02-06 10:53:26
288,narsaq,60.9167,-46.05,5.22,76,89,10.22,GL,2023-02-06 10:53:26
289,olafsvik,64.8945,-23.7142,35.76,57,80,36.04,IS,2023-02-06 10:53:27
290,ulaanbaatar,47.9077,106.8832,-2.07,78,0,4.47,MN,2023-02-06 10:54:11
291,yertsevo,60.7966,40.086,14.99,92,98,5.46,RU,2023-02-06 10:54:47
292,bar harbor,44.3876,-68.2039,34.23,84,0,4.61,US,2023-02-06 10:54:47
293,yumen,40.2833,97.2,31.35,38,20,12.68,CN,2023-02-06 10:54:48
294,nantucket,41.2835,-70.0995,44.15,96,100,3.44,US,2023-02-06 10:51:10
295,dzhebariki-khaya,62.2167,135.8,-32.53,100,100,1.41,RU,2023-02-06 10:54:48
296,tautira,-17.7333,-149.15,80.44,77,21,11.56,PF,2023-02-06 10:54:49
297,dunedin,-45.8742,170.5036,61.81,83,100,8.01,NZ,2023-02-06 10:52:16
298,cedar city,37.6775,-113.0619,11.37,85,40,6.91,US,2023-02-06 10:54:49
299,cayenne,4.9333,-52.3333,75.24,100,75,0.0,GF,2023-02-06 10:54:50
300,khovu-aksy,51.1333,93.6,-0.74,99,80,2.08,RU,2023-02-06 10:54:50
301,rio brilhante,-21.8019,-54.5464,73.38,77,8,2.08,BR,2023-02-06 10:54:50
302,qaqortoq,60.7167,-46.0333,-4.59,84,97,10.25,GL,2023-02-06 10:54:51
303,connersville,39.6412,-85.1411,31.68,88,6,5.01,US,2023-02-06 10:54:51
304,anadyr,64.75,177.4833,-22.52,67,0,13.42,RU,2023-02-06 10:54:51
305,skjervoy,70.0311,20.9714,39.2,85,100,22.28,NO,2023-02-06 10:54:52
306,port-cartier,50.0334,-66.8654,4.68,85,100,5.79,CA,2023-02-06 10:54:52
307,bambanglipuro,-7.95,110.2833,77.5,87,99,8.99,ID,2023-02-06 10:54:53
308,san jose,37.3394,-121.895,46.76,86,0,3.44,US,2023-02-06 10:53:57
309,hami,42.8,93.45,35.29,37,11,7.74,CN,2023-02-06 10:54:53
310,castleblayney,54.1167,-6.7333,43.81,89,100,11.23,IE,2023-02-06 10:54:53
311,zhigansk,66.7697,123.3711,-51.74,100,74,3.74,RU,2023-02-06 10:54:54
312,carnarvon,-24.8667,113.6333,78.75,71,0,21.77,AU,2023-02-06 10:54:54
313,rennes,48.1667,-1.6667,43.57,81,0,11.5,FR,2023-02-06 10:54:55
314,lagunas,-5.2269,-75.6753,72.3,85,99,2.13,PE,2023-02-06 10:54:55
315,shieli,44.1667,66.75,36.99,64,99,3.8,KZ,2023-02-06 10:54:55
316,priiskovyy,51.9333,116.6333,-9.31,96,8,5.7,RU,2023-02-06 10:54:56
317,mahebourg,-20.4081,57.7,85.24,74,75,8.05,MU,2023-02-06 10:54:56
318,garissa,-0.4536,39.6401,94.35,26,44,7.94,KE,2023-02-06 10:54:56
319,truckee,39.328,-120.1833,27.36,93,100,0.0,US,2023-02-06 10:54:57
320,batemans bay,-35.7167,150.1833,72.1,92,46,7.45,AU,2023-02-06 10:54:57
321,zhaoyuan,37.3592,120.3964,37.94,76,36,6.55,CN,2023-02-06 10:54:58
322,bowen,-20.0167,148.2333,81.82,80,24,13.65,AU,2023-02-06 10:54:58
323,keningau,5.3378,116.1602,73.56,96,29,0.94,MY,2023-02-06 10:54:58
324,rudnogorsk,57.2639,103.7519,12.25,93,100,8.32,RU,2023-02-06 10:54:59
325,gubbio,43.3545,12.5725,39.25,59,47,11.99,IT,2023-02-06 10:54:59
326,zeya,53.75,127.2667,-11.07,99,100,3.36,RU,2023-02-06 10:54:59
327,itarema,-2.9248,-39.9167,79.72,81,33,8.72,BR,2023-02-06 10:55:00
328,njombe,-9.3333,34.7667,67.93,74,85,2.13,TZ,2023-02-06 10:55:00
329,kedougou,12.5579,-12.1743,82.98,23,100,4.61,SN,2023-02-06 10:55:01
330,urucara,-2.5364,-57.76,73.22,97,100,2.3,BR,2023-02-06 10:55:01
331,barsovo,61.1667,73.1667,5.13,95,100,2.01,RU,2023-02-06 10:55:01
332,lasa,46.6166,10.7002,40.08,58,41,4.09,IT,2023-02-06 10:55:02
333,quatre cocos,-20.2078,57.7625,85.08,73,49,12.17,MU,2023-02-06 10:55:02
334,pundaguitan,6.3711,126.1689,81.27,77,100,14.88,PH,2023-02-06 10:55:03
335,biak,-0.9131,122.8766,78.12,77,100,4.9,ID,2023-02-06 10:55:03
336,faanui,-16.4833,-151.75,80.53,76,7,14.61,PF,2023-02-06 10:52:06
337,la ronge,55.1001,-105.2842,30.45,80,100,4.61,CA,2023-02-06 10:55:04
338,chardara,41.2547,67.9692,42.66,51,100,7.05,KZ,2023-02-06 10:55:04
339,liverpool,53.4106,-2.9779,40.28,86,0,4.61,GB,2023-02-06 10:50:36
340,caravelas,-17.7125,-39.2481,81.64,69,1,10.09,BR,2023-02-06 10:55:05
341,havre-saint-pierre,50.2334,-63.5986,5.0,78,100,12.66,CA,2023-02-06 10:55:05
342,skegness,53.1436,0.3363,41.05,72,42,10.83,GB,2023-02-06 10:55:06
343,taksimo,56.3444,114.8794,3.6,91,100,3.91,RU,2023-02-06 10:55:06
344,mitsamiouli,-11.3847,43.2844,80.74,79,100,13.31,KM,2023-02-06 10:55:07
345,aswan,24.0934,32.907,69.1,30,0,8.05,EG,2023-02-06 10:55:07
346,san rafael,-34.6177,-68.3301,76.68,33,0,10.13,AR,2023-02-06 10:55:08
347,pontes e lacerda,-15.2261,-59.3353,70.21,99,100,2.82,BR,2023-02-06 10:55:08
348,jalu,29.0331,21.5482,56.64,41,71,18.75,LY,2023-02-06 10:55:09
349,solnechnyy,50.7214,136.6319,-10.77,97,74,4.14,RU,2023-02-06 10:55:09
350,alta floresta,-9.8756,-56.0861,71.78,97,100,2.17,BR,2023-02-06 10:55:09
351,palu,-0.8917,119.8707,77.04,92,100,1.52,ID,2023-02-06 10:55:10
352,sistranda,63.7256,8.834,42.76,74,100,20.45,NO,2023-02-06 10:55:10
353,ugep,5.8086,8.0812,96.75,35,85,2.95,NG,2023-02-06 10:55:11
354,lavrentiya,65.5833,-171.0,-13.41,93,93,5.41,RU,2023-02-06 10:55:11
355,kostomuksha,64.571,30.5767,22.96,92,38,5.35,RU,2023-02-06 10:55:11
356,richards bay,-28.783,32.0377,83.52,61,11,10.38,ZA,2023-02-06 10:55:12
357,lugovskoy,56.9585,64.529,20.77,91,100,1.9,RU,2023-02-06 10:55:12
358,mandera,3.9366,41.867,96.3,18,14,14.34,KE,2023-02-06 10:55:12
359,yanam,16.7333,82.2167,81.81,51,64,7.36,IN,2023-02-06 10:55:13
360,calvinia,-31.4707,19.776,89.46,20,63,16.33,ZA,2023-02-06 10:55:13
361,iskateley,67.6803,53.1512,-0.18,96,38,7.99,RU,2023-02-06 10:55:14
362,meghri,38.9029,46.2446,51.22,53,68,10.16,AM,2023-02-06 10:55:14
363,thiruvananthapuram,8.4833,76.9167,85.98,70,40,0.0,IN,2023-02-06 10:55:14
364,buraydah,26.326,43.975,75.65,15,89,15.95,SA,2023-02-06 10:55:15
365,champerico,14.3,-91.9167,73.53,78,6,3.22,GT,2023-02-06 10:55:15
366,pavilosta,56.8879,21.1859,37.31,80,14,9.53,LV,2023-02-06 10:55:15
367,molochnoye,59.2917,39.6787,17.08,92,89,4.79,RU,2023-02-06 10:55:16
368,marzuq,14.4,46.4667,84.6,17,41,11.63,YE,2023-02-06 10:55:16
369,hualmay,-11.0964,-77.6139,71.67,85,96,3.18,PE,2023-02-06 10:55:17
370,carauari,-4.8828,-66.8958,71.91,99,100,1.3,BR,2023-02-06 10:55:17
371,pangody,65.85,74.4859,-15.88,100,99,0.83,RU,2023-02-06 10:55:17
372,ahipara,-35.1667,173.1667,64.4,93,5,6.53,NZ,2023-02-06 10:55:18
373,cabo san lucas,22.8909,-109.9124,67.51,52,50,9.64,MX,2023-02-06 10:55:18
374,voi,-3.3945,38.563,89.2,35,80,10.85,KE,2023-02-06 10:55:19
375,taitung,22.7583,121.1444,70.07,100,75,2.3,TW,2023-02-06 10:55:19
376,lazarev,52.225,141.5131,-6.68,100,80,3.42,RU,2023-02-06 10:55:20
377,boralday,43.3578,76.8594,31.86,93,100,4.47,KZ,2023-02-06 10:55:20
378,saldanha,-33.0117,17.9442,84.25,68,14,10.04,ZA,2023-02-06 10:55:20
379,amberley,39.2048,-84.428,33.04,86,0,4.61,US,2023-02-06 10:55:21
380,wewak,-3.5534,143.6268,79.54,84,100,12.17,PG,2023-02-06 10:55:21
381,kenai,60.5544,-151.2583,30.15,71,100,21.85,US,2023-02-06 10:52:40
382,eregli,37.5133,34.0467,32.81,87,100,16.37,TR,2023-02-06 10:55:22
383,norman wells,65.282,-126.8329,-9.36,70,100,6.91,CA,2023-02-06 10:55:22
384,vadso,70.0744,29.7487,28.56,74,0,6.91,NO,2023-02-06 10:55:22
385,oranjestad,12.524,-70.027,78.91,80,40,14.97,AW,2023-02-06 10:52:31
386,ewa beach,21.3156,-158.0072,76.98,73,0,17.27,US,2023-02-06 10:52:32
387,nador,35.174,-2.9287,59.25,63,20,5.75,MA,2023-02-06 10:55:23
388,kisangani,0.5167,25.2,100.62,25,77,2.06,CD,2023-02-06 10:55:24
389,betioky,-23.7167,44.3833,88.32,42,65,12.88,MG,2023-02-06 10:55:24
390,griffith,41.5284,-87.4237,28.89,97,0,0.0,US,2023-02-06 10:55:24
391,sanming,26.2486,117.6186,62.4,97,90,1.3,CN,2023-02-06 10:55:25
392,colesberg,-30.72,25.0972,87.08,24,39,7.99,ZA,2023-02-06 10:55:25
393,tres arroyos,-38.3739,-60.2798,67.91,77,14,14.2,AR,2023-02-06 10:55:26
394,talara,-4.5772,-81.2719,74.7,78,75,6.69,PE,2023-02-06 10:55:26
395,coihaique,-45.5752,-72.0662,53.55,54,0,9.22,CL,2023-02-06 10:55:26
396,antofagasta,-23.65,-70.4,67.28,87,20,3.89,CL,2023-02-06 10:55:27
397,namibe,-15.1961,12.1522,76.69,67,79,9.01,AO,2023-02-06 10:54:27
398,sur,22.5667,59.5289,76.3,54,15,9.19,OM,2023-02-06 10:55:27
399,atar,20.5169,-13.0499,69.6,21,39,11.03,MR,2023-02-06 10:55:28
400,peace river,56.2501,-117.286,23.31,79,20,6.91,CA,2023-02-06 10:55:28
401,lagoa,39.05,-27.9833,57.29,82,100,30.71,PT,2023-02-06 10:55:28
402,fairbanks,64.8378,-147.7164,8.6,82,40,5.75,US,2023-02-06 10:55:29
403,yangambi,0.8102,24.4336,98.19,26,69,3.6,CD,2023-02-06 10:55:29
404,mlawa,53.1128,20.3841,29.71,74,93,7.54,PL,2023-02-06 10:55:29
405,kuusamo,65.9667,29.1833,14.04,85,0,6.91,FI,2023-02-06 10:55:30
406,lokosovo,61.1333,74.8167,6.89,96,100,1.21,RU,2023-02-06 10:55:30
407,sabang,5.8933,95.3214,82.0,72,53,13.87,ID,2023-02-06 10:55:31
408,maiduguri,11.8464,13.1603,92.52,12,99,16.89,NG,2023-02-06 10:55:31
409,asau,46.4333,26.4,27.52,81,100,11.39,RO,2023-02-06 10:55:31
410,torbay,47.6666,-52.7314,39.38,95,100,24.16,CA,2023-02-06 10:55:32
411,kloulklubed,7.0419,134.2556,75.7,78,86,21.63,PW,2023-02-06 10:55:32
412,ostrovnoy,68.0531,39.5131,19.38,92,100,20.4,RU,2023-02-06 10:55:33
413,la orilla,17.9833,-102.2333,68.99,85,1,3.8,MX,2023-02-06 10:55:33
414,jumla,29.2747,82.1838,50.61,36,0,6.89,NP,2023-02-06 10:55:33
415,abonnema,4.7084,6.7931,89.89,54,86,3.98,NG,2023-02-06 10:55:34
416,finnsnes,69.2296,17.9811,39.81,98,100,10.92,NO,2023-02-06 10:55:34
417,belgrade,44.804,20.4651,30.42,69,40,9.22,RS,2023-02-06 10:55:34
418,radnevo,42.3,25.9333,36.07,46,100,19.33,BG,2023-02-06 10:55:35
419,mayya,61.7333,130.2811,-44.28,100,100,2.55,RU,2023-02-06 10:55:35
420,kinshasa,-4.3246,15.3215,84.58,61,20,9.22,CD,2023-02-06 10:55:12
421,durban,-29.8579,31.0292,84.02,70,1,5.01,ZA,2023-02-06 10:51:37
422,shingu,33.7333,135.9833,47.21,63,100,4.7,JP,2023-02-06 10:55:36
423,kruisfontein,-34.0033,24.7314,80.8,61,92,10.92,ZA,2023-02-06 10:55:36
424,timmins,48.4669,-81.3331,-14.98,76,0,0.0,CA,2023-02-06 10:51:49
425,kotka,60.4664,26.9458,29.46,84,20,9.75,FI,2023-02-06 10:55:37
426,harlingen,26.1906,-97.6961,63.93,97,0,9.69,US,2023-02-06 10:52:16
427,kharp,66.8014,65.8081,2.77,90,63,6.8,RU,2023-02-06 10:55:37
428,charters towers,-20.1,146.2667,78.13,85,71,9.37,AU,2023-02-06 10:55:38
429,ormstown,45.1334,-73.9992,25.0,99,100,3.18,CA,2023-02-06 10:55:38
430,sao geraldo do araguaia,-6.4006,-48.555,74.86,93,52,0.98,BR,2023-02-06 10:53:17
431,dormidontovka,47.7702,134.9076,-10.48,99,7,4.92,RU,2023-02-06 10:55:39
432,decatur,39.8403,-88.9548,30.06,100,0,6.91,US,2023-02-06 10:52:39
433,maceio,-9.6658,-35.7353,80.04,89,40,6.91,BR,2023-02-06 10:55:39
434,pisco,-13.7,-76.2167,71.65,94,100,3.44,PE,2023-02-06 10:55:39
435,anton lizardo,19.05,-95.9833,70.21,88,100,3.8,MX,2023-02-06 10:55:40
436,pitimbu,-7.4706,-34.8086,77.59,77,67,8.86,BR,2023-02-06 10:55:40
437,pinheiro machado,-31.5783,-53.3811,69.06,86,0,3.78,BR,2023-02-06 10:55:41
438,seduva,55.7667,23.7667,32.43,80,72,9.46,LT,2023-02-06 10:55:41
439,tashtyp,52.7939,89.8983,-0.56,100,85,1.92,RU,2023-02-06 10:55:41
440,katobu,-4.9408,122.5276,78.39,81,99,0.4,ID,2023-02-06 10:55:42
441,loukhi,66.0764,33.0381,14.95,96,49,1.48,RU,2023-02-06 10:55:42
442,botro,7.8525,-5.3106,83.68,43,95,4.43,CI,2023-02-06 10:55:42
443,eirunepe,-6.6603,-69.8736,70.34,99,100,1.14,BR,2023-02-06 10:55:43
444,shorewood,41.52,-88.2017,26.71,94,0,0.0,US,2023-02-06 10:55:43
445,sosua,19.7667,-70.5167,67.98,90,12,6.44,DO,2023-02-06 10:55:43
446,tayu,-6.5397,111.0518,79.27,83,82,10.2,ID,2023-02-06 10:55:44
447,saint-pierre,-21.3393,55.4781,85.68,70,95,27.63,RE,2023-02-06 10:55:44
448,miri,4.4148,114.0089,82.54,78,40,6.91,MY,2023-02-06 10:54:24
449,zabol,32.25,67.25,46.22,41,4,18.86,AF,2023-02-06 10:55:45
450,vanavara,60.34,102.2797,9.03,96,99,5.64,RU,2023-02-06 10:55:45
451,soligalich,59.0778,42.2864,19.06,93,99,1.39,RU,2023-02-06 10:55:45
452,tingo maria,-9.2895,-76.0088,67.1,99,85,1.1,PE,2023-02-06 10:55:46
453,naze,28.3667,129.4833,63.52,88,100,19.55,JP,2023-02-06 10:55:46
454,bilibino,68.0546,166.4372,-28.82,98,100,1.52,RU,2023-02-06 10:55:47
455,feuchtwangen,49.1667,10.3333,34.21,70,84,5.97,DE,2023-02-06 10:55:47
456,tahe,52.3333,124.7333,-10.44,99,56,1.21,CN,2023-02-06 10:55:47
457,san juan,-31.5375,-68.5364,79.12,38,6,3.96,AR,2023-02-06 10:52:26
458,alice town,25.7167,-79.3,74.17,75,41,9.95,BS,2023-02-06 10:55:48
459,bilma,18.6853,12.9164,76.33,10,12,15.12,NE,2023-02-06 10:55:48
460,chernenko,44.365,39.3103,36.97,64,100,14.7,RU,2023-02-06 10:55:49
461,kisarawe,-6.9,39.0667,85.8,58,75,5.75,TZ,2023-02-06 10:55:49
462,rorvik,64.8621,11.2373,42.91,81,100,23.02,NO,2023-02-06 10:55:50
463,rocha,-34.4833,-54.3333,71.04,60,27,4.03,UY,2023-02-06 10:55:50
464,grand gaube,-20.0064,57.6608,85.37,69,66,10.0,MU,2023-02-06 10:55:50
465,porto murtinho,-21.6989,-57.8825,75.85,75,74,4.38,BR,2023-02-06 10:55:51
466,grandview,38.8858,-94.533,45.0,63,0,11.5,US,2023-02-06 10:52:07
467,diffa,13.3154,12.6113,87.31,11,95,16.33,NE,2023-02-06 10:55:51
468,praia,14.9215,-23.5087,70.34,64,20,24.16,CV,2023-02-06 10:55:52
469,huaicheng,23.9051,112.1931,64.87,93,97,1.19,CN,2023-02-06 10:55:52
470,namatanai,-3.6667,152.4333,79.86,82,100,5.44,PG,2023-02-06 10:55:52
471,henties bay,-22.116,14.2845,68.38,75,100,9.73,NA,2023-02-06 10:55:53
472,salalah,17.0151,54.0924,80.69,57,0,9.22,OM,2023-02-06 10:55:53
473,manadhoo,5.7667,73.3833,81.03,72,96,3.51,MV,2023-02-06 10:55:54
474,ust-tsilma,65.441,52.1498,4.75,98,98,2.75,RU,2023-02-06 10:55:54
475,pinawa,50.1489,-95.8811,19.18,91,73,10.36,CA,2023-02-06 10:55:54
476,tilichiki,60.4667,166.1,-23.71,95,12,8.32,RU,2023-02-06 10:55:55
477,vanimo,-2.6741,141.3028,78.55,85,100,4.81,PG,2023-02-06 10:55:55
478,kedrovyy,56.1667,91.8167,1.87,98,37,2.57,RU,2023-02-06 10:55:55
479,zonguldak,41.25,31.8333,36.45,95,100,10.71,TR,2023-02-06 10:55:56
480,mont-dore,-22.2833,166.5833,78.78,87,65,9.06,NC,2023-02-06 10:55:56
481,dzaoudzi,-12.7887,45.2699,76.89,94,75,9.22,YT,2023-02-06 10:51:35
482,santa vitoria do palmar,-33.5189,-53.3681,69.78,74,12,3.51,BR,2023-02-06 10:52:11
483,moosomin,50.1333,-101.6677,26.19,91,100,9.4,CA,2023-02-06 10:55:57
484,outlook,51.5001,-107.0513,32.23,83,85,14.25,CA,2023-02-06 10:55:57
485,marsa matruh,31.3525,27.2453,55.6,76,100,17.27,EG,2023-02-06 10:54:23
486,chacabuco,-34.6417,-60.4739,68.83,38,62,5.61,AR,2023-02-06 10:55:58
487,orotukan,62.2667,151.7,-32.01,100,99,2.95,RU,2023-02-06 10:55:58
488,almere,52.3703,5.2141,48.06,91,11,4.0,NL,2023-02-06 10:55:02
489,hasaki,35.7333,140.8333,47.21,60,100,6.69,JP,2023-02-06 10:55:59
490,north myrtle beach,33.816,-78.68,47.01,98,20,5.75,US,2023-02-06 10:55:59
491,raudeberg,61.9875,5.1352,45.95,74,100,22.01,NO,2023-02-06 10:55:59
492,huaihua,27.5494,109.9592,48.13,82,99,2.19,CN,2023-02-06 10:56:00
493,thinadhoo,0.5333,72.9333,81.37,72,100,8.3,MV,2023-02-06 10:56:00
494,namanga,-2.5433,36.7905,89.8,21,18,4.32,KE,2023-02-06 10:56:00
495,barbosa ferraz,-24.03,-52.0117,69.78,80,34,2.21,BR,2023-02-06 10:56:01
496,college,64.8569,-147.8028,8.58,81,75,5.75,US,2023-02-06 10:56:01
497,carutapera,-1.195,-46.02,76.89,93,100,5.44,BR,2023-02-06 10:56:02
498,lata,40.1629,-8.3327,58.08,45,8,4.52,PT,2023-02-06 10:56:02
499,north bend,43.4065,-124.2243,41.16,100,100,6.91,US,2023-02-06 10:56:02
500,manggar,-2.8833,108.2667,80.65,82,100,5.12,ID,2023-02-06 10:56:03
501,rognan,67.0953,15.3878,44.74,96,100,6.93,NO,2023-02-06 10:56:03
502,balakhninskiy,58.0106,114.2769,-3.05,98,100,3.49,RU,2023-02-06 10:56:04
503,rapid valley,44.0625,-103.1463,42.42,63,0,8.99,US,2023-02-06 10:56:04
504,owando,-0.4819,15.8999,96.24,32,38,3.36,CG,2023-02-06 10:56:04
505,cozumel,20.5083,-86.9458,73.94,88,4,9.82,MX,2023-02-06 10:52:03
506,nanfeng,23.7434,111.7959,64.69,93,100,1.9,CN,2023-02-06 10:56:05
507,sorrento,40.626,14.3744,44.26,66,0,11.5,IT,2023-02-06 10:56:05
508,ponta do sol,32.6667,-17.1,64.13,47,4,6.93,PT,2023-02-06 10:56:06
509,novikovo,51.1537,37.8879,25.45,82,100,10.49,RU,2023-02-06 10:56:06
510,abu kamal,34.4506,40.9171,65.43,27,41,16.75,SY,2023-02-06 10:56:07
511,esso,55.9333,158.7,5.77,99,100,2.3,RU,2023-02-06 10:56:07
512,ayan,56.45,138.1667,-11.16,81,38,8.25,RU,2023-02-06 10:56:08
513,muncar,-8.4333,114.3333,77.74,87,95,9.15,ID,2023-02-06 10:56:08
514,huarmey,-10.0681,-78.1522,71.47,85,91,3.94,PE,2023-02-06 10:56:08
515,daru,-9.0763,143.2092,78.73,86,100,3.42,PG,2023-02-06 10:56:09
516,gangapur,26.4833,76.7167,81.21,23,0,9.53,IN,2023-02-06 10:56:09
517,kanniyakumari,8.0833,77.5667,83.64,59,61,12.48,IN,2023-02-06 10:56:09
518,sijunjung,-0.6876,100.9537,75.6,72,98,2.66,ID,2023-02-06 10:56:10
519,kongoussi,13.3258,-1.5347,93.25,9,44,16.67,BF,2023-02-06 10:56:10
520,igarka,67.4667,86.5833,-10.08,100,97,2.86,RU,2023-02-06 10:56:11
521,sao jose da coroa grande,-8.8978,-35.1478,79.48,78,68,8.3,BR,2023-02-06 10:56:11
522,mildura,-34.2,142.15,74.07,45,1,10.87,AU,2023-02-06 10:56:11
523,nouadhibou,20.931,-17.0347,62.58,48,0,16.11,MR,2023-02-06 10:55:48
524,prince george,53.9166,-122.753,36.25,77,100,13.8,CA,2023-02-06 10:53:57
525,eagle pass,28.7091,-100.4995,53.28,85,1,8.7,US,2023-02-06 10:56:12
526,buluang,13.3068,123.3425,75.69,91,39,3.27,PH,2023-02-06 10:56:12
527,ankazobe,-18.3167,47.1167,73.65,71,100,8.59,MG,2023-02-06 10:56:13
528,dongli,23.5656,116.8194,66.18,88,20,2.24,CN,2023-02-06 10:56:13
529,la tuque,47.4334,-72.7824,7.05,85,93,3.44,CA,2023-02-06 10:56:14
530,dombarovskiy,50.7587,59.5386,6.04,95,61,4.97,RU,2023-02-06 10:56:14
531,nuristan,35.3,70.8333,20.12,82,68,5.48,AF,2023-02-06 10:56:15
532,karabulak,43.3036,44.8964,27.59,87,100,10.29,RU,2023-02-06 10:56:16
533,temerloh,3.4483,102.4176,73.98,99,100,2.48,MY,2023-02-06 10:56:16
534,port hedland,-20.3167,118.5667,89.65,62,0,14.97,AU,2023-02-06 10:56:17
535,baykit,61.67,96.37,-3.46,100,85,3.29,RU,2023-02-06 10:56:17
536,bubaque,11.2833,-15.8333,75.15,42,98,15.66,GW,2023-02-06 10:56:17
537,puerto carreno,6.189,-67.4859,74.59,65,97,8.28,CO,2023-02-06 10:56:18
538,siderno,38.2779,16.302,42.33,32,0,4.43,IT,2023-02-06 10:56:18
539,myingyan,21.4667,95.3833,84.33,23,2,3.65,MM,2023-02-06 10:56:18
540,chimbote,-9.0853,-78.5783,70.32,85,86,4.21,PE,2023-02-06 10:56:19
541,uspenka,48.3903,39.1619,27.68,70,100,12.53,UA,2023-02-06 10:56:19
542,vakhrushev,48.9833,142.9667,-3.32,97,62,4.88,RU,2023-02-06 10:56:20
543,velika gorica,45.7125,16.0756,33.19,54,0,3.44,HR,2023-02-06 10:56:20
544,platteville,42.7342,-90.4785,23.23,86,0,8.05,US,2023-02-06 10:56:20
545,les escoumins,48.1111,-69.0236,13.35,96,100,5.44,CA,2023-02-06 10:56:21
546,camopi,3.1655,-52.3158,71.83,99,100,1.57,GF,2023-02-06 10:56:21
547,ketchikan,55.3422,-131.6461,45.07,93,100,21.85,US,2023-02-06 10:56:22
548,pochutla,15.7432,-96.4661,70.23,55,0,2.37,MX,2023-02-06 10:56:22
549,madaoua,14.073,5.96,88.84,11,100,16.49,NE,2023-02-06 10:56:22
550,bira,49.0,132.4667,-7.87,98,24,3.38,RU,2023-02-06 10:56:23
551,gimli,50.6336,-96.9907,21.22,93,90,17.27,CA,2023-02-06 10:55:17
552,burns lake,54.2331,-125.7533,29.62,97,92,4.76,CA,2023-02-06 10:56:23
553,belogorsk,50.9158,128.4611,-12.71,100,84,4.72,RU,2023-02-06 10:56:24
554,port lincoln,-34.7333,135.8667,65.71,75,0,14.18,AU,2023-02-06 10:56:24
555,alihe,50.5667,123.7167,-5.71,94,13,3.74,CN,2023-02-06 10:56:25
